$RD_RSSI, 11180, 10091
$GPGGA,000208.000,0000.000000,N,00000.000000,E,0,00,127.000,0.000,M,0,M,,*7D
$GPRMC,000208.000,V,0000.000000,N,00000.000000,E,0.000,0.000,,,E,N*39
$GPGLL,0000.000000,N,00000.000000,E,000208.000,V,N*4B
$GPGSA,A,1,,,,,,,,,,,,,127.000,127.000,127.000*34
$GLGSA,A,1,,,,,,,,,,,,,127.000,127.000,127.000*28
$GPVTG,0.000,T,,M,0.000,N,0.000,K,N*02
$RD_RSSI, 4693, 5171
$GPGGA,000209.000,0000.000000,N,00000.000000,E,0,00,127.000,0.000,M,0,M,,*7C
$GPRMC,000209.000,V,0000.000000,N,00000.000000,E,0.000,0.000,,,E,N*38
$GPGLL,0000.000000,N,00000.000000,E,000209.000,V,N*4A
$GPGSA,A,1,,,,,,,,,,,,,127.000,127.000,127.000*34
$GLGSA,A,1,,,,,,,,,,,,,127.000,127.000,127.000*28
$GPVTG,0.000,T,,M,0.000,N,0.000,K,N*02
$RD_RSSI, 4109, 2988
$GPGGA,000210.000,0000.000000,N,00000.000000,E,0,00,127.000,0.000,M,0,M,,*74
$GPRMC,000210.000,V,0000.000000,N,00000.000000,E,0.000,0.000,,,E,N*30
$GPGLL,0000.000000,N,00000.000000,E,000210.000,V,N*42
$GPGSA,A,1,,,,,,,,,,,,,127.000,127.000,127.000*34
$GLGSA,A,1,,,,,,,,,,,,,127.000,127.000,127.000*28
$GPVTG,0.000,T,,M,0.000,N,0.000,K,N*02
$RD_RSSI, 5413, 4026
$GPGGA,000211.000,0000.000000,N,00000.000000,E,0,00,127.000,0.000,M,0,M,,*75
$GPRMC,000211.000,V,0000.000000,N,00000.000000,E,0.000,0.000,,,E,N*31
$GPGLL,0000.000000,N,00000.000000,E,000211.000,V,N*43
$GPGSA,A,1,,,,,,,,,,,,,127.000,127.000,127.000*34
$GLGSA,A,1,,,,,,,,,,,,,127.000,127.000,127.000*28
$GPVTG,0.000,T,,M,0.000,N,0.000,K,N*02
$RD_RSSI, 4928, 3454
$GPGGA,000212.000,0000.000000,N,00000.000000,E,0,00,127.000,0.000,M,0,M,,*76
$GPRMC,000212.000,V,0000.000000,N,00000.000000,E,0.000,0.000,,,E,N*32
$GPGLL,0000.000000,N,00000.000000,E,000212.000,V,N*40
$GPGSA,A,1,,,,,,,,,,,,,127.000,127.000,127.000*34
$GLGSA,A,1,,,,,,,,,,,,,127.000,127.000,127.000*28
$GPVTG,0.000,T,,M,0.000,N,0.000,K,N*02
$RD_RSSI, 4841, 4714
$GPGGA,000213.000,0000.000000,N,00000.000000,E,0,00,127.000,0.000,M,0,M,,*77
$GPRMC,000213.000,V,0000.000000,N,00000.000000,E,0.000,0.000,,,E,N*33
$GPGLL,0000.000000,N,00000.000000,E,000213.000,V,N*41
$GPGSA,A,1,,,,,,,,,,,,,127.000,127.000,127.000*34
$GLGSA,A,1,,,,,,,,,,,,,127.000,127.000,127.000*28
$GPVTG,0.000,T,,M,0.000,N,0.000,K,N*02
$RD_RSSI, 4706, 4675
$GPGGA,000214.000,0000.000000,N,00000.000000,E,0,00,127.000,0.000,M,0,M,,*70
$GPRMC,000214.000,V,0000.000000,N,00000.000000,E,0.000,0.000,,,E,N*34
$GPGLL,0000.000000,N,00000.000000,E,000214.000,V,N*46
$GPGSA,A,1,,,,,,,,,,,,,127.000,127.000,127.000*34
$GLGSA,A,1,,,,,,,,,,,,,127.000,127.000,127.000*28
$GPVTG,0.000,T,,M,0.000,N,0.000,K,N*02
$RD_RSSI, 5249, 5964
$GPGGA,000215.000,0000.000000,N,00000.000000,E,0,00,127.000,0.000,M,0,M,,*71
$GPRMC,000215.000,V,0000.000000,N,00000.000000,E,0.000,0.000,,,E,N*35
$GPGLL,0000.000000,N,00000.000000,E,000215.000,V,N*47
$GPGSA,A,1,,,,,,,,,,,,,127.000,127.000,127.000*34
$GLGSA,A,1,,,,,,,,,,,,,127.000,127.000,127.000*28
$GPVTG,0.000,T,,M,0.000,N,0.000,K,N*02
$RD_RSSI, 4666, 3138
$GPGGA,000216.000,0000.000000,N,00000.000000,E,0,00,127.000,0.000,M,0,M,,*72
$GPRMC,000216.000,V,0000.000000,N,00000.000000,E,0.000,0.000,,,E,N*36
$GPGLL,0000.000000,N,00000.000000,E,000216.000,V,N*44
$GPGSA,A,1,,,,,,,,,,,,,127.000,127.000,127.000*34
$GLGSA,A,1,,,,,,,,,,,,,127.000,127.000,127.000*28
$GPVTG,0.000,T,,M,0.000,N,0.000,K,N*02
$RD_RSSI, 4705, 3104
$GPGGA,000217.000,0000.000000,N,00000.000000,E,0,00,127.000,0.000,M,0,M,,*73
$GPRMC,000217.000,V,0000.000000,N,00000.000000,E,0.000,0.000,,,E,N*37
$GPGLL,0000.000000,N,00000.000000,E,000217.000,V,N*45
$GPGSA,A,1,,,,,,,,,,,,,127.000,127.000,127.000*34
$GLGSA,A,1,,,,,,,,,,,,,127.000,127.000,127.000*28
$GPVTG,0.000,T,,M,0.000,N,0.000,K,N*02
$RD_RSSI, 4972, 3345
$GPGGA,000218.000,0000.000000,N,00000.000000,E,0,00,127.000,0.000,M,0,M,,*7C
$GPRMC,000218.000,V,0000.000000,N,00000.000000,E,0.000,0.000,,,E,N*38
$GPGLL,0000.000000,N,00000.000000,E,000218.000,V,N*4A
$GPGSA,A,1,,,,,,,,,,,,,127.000,127.000,127.000*34
$GLGSA,A,1,,,,,,,,,,,,,127.000,127.000,127.000*28
$GPVTG,0.000,T,,M,0.000,N,0.000,K,N*02
$RD_RSSI, 5749, 5909
$GPGGA,000219.000,0000.000000,N,00000.000000,E,0,00,127.000,0.000,M,0,M,,*7D
$GPRMC,000219.000,V,0000.000000,N,00000.000000,E,0.000,0.000,,,E,N*39
$GPGLL,0000.000000,N,00000.000000,E,000219.000,V,N*4B
$GPGSA,A,1,,,,,,,,,,,,,127.000,127.000,127.000*34
$GLGSA,A,1,,,,,,,,,,,,,127.000,127.000,127.000*28
$GPVTG,0.000,T,,M,0.000,N,0.000,K,N*02
$RD_RSSI, 6137, 6030
$GPGGA,000220.000,0000.000000,N,00000.000000,E,0,00,127.000,0.000,M,0,M,,*77
$GPRMC,000220.000,V,0000.000000,N,00000.000000,E,0.000,0.000,,,E,N*33
$GPGLL,0000.000000,N,00000.000000,E,000220.000,V,N*41
$GPGSA,A,1,,,,,,,,,,,,,127.000,127.000,127.000*34
$GLGSA,A,1,,,,,,,,,,,,,127.000,127.000,127.000*28
$GPVTG,0.000,T,,M,0.000,N,0.000,K,N*02
$RD_RSSI, 5387, 4980
$GPGGA,000221.000,0000.000000,N,00000.000000,E,0,00,127.000,0.000,M,0,M,,*76
$GPRMC,000221.000,V,0000.000000,N,00000.000000,E,0.000,0.000,,,E,N*32
$GPGLL,0000.000000,N,00000.000000,E,000221.000,V,N*40
$GPGSA,A,1,,,,,,,,,,,,,127.000,127.000,127.000*34
$GLGSA,A,1,,,,,,,,,,,,,127.000,127.000,127.000*28
$GPVTG,0.000,T,,M,0.000,N,0.000,K,N*02
$RD_RSSI, 4877, 3067
$GPGGA,000222.000,0000.000000,N,00000.000000,E,0,00,127.000,0.000,M,0,M,,*75
$GPRMC,000222.000,V,0000.000000,N,00000.000000,E,0.000,0.000,,,E,N*31
$GPGLL,0000.000000,N,00000.000000,E,000222.000,V,N*43
$GPGSA,A,1,,,,,,,,,,,,,127.000,127.000,127.000*34
$GLGSA,A,1,,,,,,,,,,,,,127.000,127.000,127.000*28
$GPVTG,0.000,T,,M,0.000,N,0.000,K,N*02
