$RD_RSSI, 4268, 3874
$GPGGA,000358.000,0000.000000,N,00000.000000,E,0,00,127.000,0.000,M,0,M,,*79
$GPRMC,000358.000,V,0000.000000,N,00000.000000,E,0.000,0.000,,,E,N*3D
$GPGLL,0000.000000,N,00000.000000,E,000358.000,V,N*4F
$GPGSA,A,1,,,,,,,,,,,,,127.000,127.000,127.000*34
$GLGSA,A,1,,,,,,,,,,,,,127.000,127.000,127.000*28
$GPVTG,0.000,T,,M,0.000,N,0.000,K,N*02
$RD_RSSI, 4297, 4114
$GPGGA,000359.000,0000.000000,N,00000.000000,E,0,00,127.000,0.000,M,0,M,,*78
$GPRMC,000359.000,V,0000.000000,N,00000.000000,E,0.000,0.000,,,E,N*3C
$GPGLL,0000.000000,N,00000.000000,E,000359.000,V,N*4E
$GPGSA,A,1,,,,,,,,,,,,,127.000,127.000,127.000*34
$GLGSA,A,1,,,,,,,,,,,,,127.000,127.000,127.000*28
$GPVTG,0.000,T,,M,0.000,N,0.000,K,N*02
$RD_RSSI, 5651, 5511
$GPGGA,000400.000,0000.000000,N,00000.000000,E,0,00,127.000,0.000,M,0,M,,*73
$GPRMC,000400.000,V,0000.000000,N,00000.000000,E,0.000,0.000,,,E,N*37
$GPGLL,0000.000000,N,00000.000000,E,000400.000,V,N*45
$GPGSA,A,1,,,,,,,,,,,,,127.000,127.000,127.000*34
$GLGSA,A,1,,,,,,,,,,,,,127.000,127.000,127.000*28
$GPVTG,0.000,T,,M,0.000,N,0.000,K,N*02
$RD_RSSI, 5212, 3015
$GPGGA,000401.000,0000.000000,N,00000.000000,E,0,00,127.000,0.000,M,0,M,,*72
$GPRMC,000401.000,V,0000.000000,N,00000.000000,E,0.000,0.000,,,E,N*36
$GPGLL,0000.000000,N,00000.000000,E,000401.000,V,N*44
$GPGSA,A,1,,,,,,,,,,,,,127.000,127.000,127.000*34
$GLGSA,A,1,,,,,,,,,,,,,127.000,127.000,127.000*28
$GPVTG,0.000,T,,M,0.000,N,0.000,K,N*02
$RD_RSSI, 4997, 3335
$GPGGA,000402.000,0000.000000,N,00000.000000,E,0,00,127.000,0.000,M,0,M,,*71
$GPRMC,000402.000,V,0000.000000,N,00000.000000,E,0.000,0.000,,,E,N*35
$GPGLL,0000.000000,N,00000.000000,E,000402.000,V,N*47
$GPGSA,A,1,,,,,,,,,,,,,127.000,127.000,127.000*34
$GLGSA,A,1,,,,,,,,,,,,,127.000,127.000,127.000*28
$GPVTG,0.000,T,,M,0.000,N,0.000,K,N*02
$RD_RSSI, 5477, 3197
$GPGGA,000403.000,0000.000000,N,00000.000000,E,0,00,127.000,0.000,M,0,M,,*70
$GPRMC,000403.000,V,0000.000000,N,00000.000000,E,0.000,0.000,,,E,N*34
$GPGLL,0000.000000,N,00000.000000,E,000403.000,V,N*46
$GPGSA,A,1,,,,,,,,,,,,,127.000,127.000,127.000*34
$GLGSA,A,1,,,,,,,,,,,,,127.000,127.000,127.000*28
$GPVTG,0.000,T,,M,0.000,N,0.000,K,N*02
$RD_RSSI, 5584, 5448
$GPGGA,000404.000,0000.000000,N,00000.000000,E,0,00,127.000,0.000,M,0,M,,*77
$GPRMC,000404.000,V,0000.000000,N,00000.000000,E,0.000,0.000,,,E,N*33
$GPGLL,0000.000000,N,00000.000000,E,000404.000,V,N*41
$GPGSA,A,1,,,,,,,,,,,,,127.000,127.000,127.000*34
$GLGSA,A,1,,,,,,,,,,,,,127.000,127.000,127.000*28
$GPVTG,0.000,T,,M,0.000,N,0.000,K,N*02
$RD_RSSI, 4750, 3285
$GPGGA,000405.000,0000.000000,N,00000.000000,E,0,00,127.000,0.000,M,0,M,,*76
$GPRMC,000405.000,V,0000.000000,N,00000.000000,E,0.000,0.000,,,E,N*32
$GPGLL,0000.000000,N,00000.000000,E,000405.000,V,N*40
$GPGSA,A,1,,,,,,,,,,,,,127.000,127.000,127.000*34
$GLGSA,A,1,,,,,,,,,,,,,127.000,127.000,127.000*28
$GPVTG,0.000,T,,M,0.000,N,0.000,K,N*02
$RD_RSSI, 5493, 4603
$GPGGA,000406.000,0000.000000,N,00000.000000,E,0,00,127.000,0.000,M,0,M,,*75
$GPRMC,000406.000,V,0000.000000,N,00000.000000,E,0.000,0.000,,,E,N*31
$GPGLL,0000.000000,N,00000.000000,E,000406.000,V,N*43
$GPGSA,A,1,,,,,,,,,,,,,127.000,127.000,127.000*34
$GLGSA,A,1,,,,,,,,,,,,,127.000,127.000,127.000*28
$GPVTG,0.000,T,,M,0.000,N,0.000,K,N*02
$RD_RSSI, 4899, 3219
$GPGGA,000407.000,0000.000000,N,00000.000000,E,0,00,127.000,0.000,M,0,M,,*74
$GPRMC,000407.000,V,0000.000000,N,00000.000000,E,0.000,0.000,,,E,N*30
$GPGLL,0000.000000,N,00000.000000,E,000407.000,V,N*42
$GPGSA,A,1,,,,,,,,,,,,,127.000,127.000,127.000*34
$GLGSA,A,1,,,,,,,,,,,,,127.000,127.000,127.000*28
$GPVTG,0.000,T,,M,0.000,N,0.000,K,N*02
$RD_RSSI, 6010, 5620
$GPGGA,000408.000,0000.000000,N,00000.000000,E,0,00,127.000,0.000,M,0,M,,*7B
$GPRMC,000408.000,V,0000.000000,N,00000.000000,E,0.000,0.000,,,E,N*3F
$GPGLL,0000.000000,N,00000.000000,E,000408.000,V,N*4D
$GPGSA,A,1,,,,,,,,,,,,,127.000,127.000,127.000*34
$GLGSA,A,1,,,,,,,,,,,,,127.000,127.000,127.000*28
$GPVTG,0.000,T,,M,0.000,N,0.000,K,N*02
$RD_RSSI, 5492, 4645
$GPGGA,000409.000,0000.000000,N,00000.000000,E,0,00,127.000,0.000,M,0,M,,*7A
$GPRMC,000409.000,V,0000.000000,N,00000.000000,E,0.000,0.000,,,E,N*3E
$GPGLL,0000.000000,N,00000.000000,E,000409.000,V,N*4C
$GPGSA,A,1,,,,,,,,,,,,,127.000,127.000,127.000*34
$GLGSA,A,1,,,,,,,,,,,,,127.000,127.000,127.000*28
$GPVTG,0.000,T,,M,0.000,N,0.000,K,N*02
$RD_RSSI, 5412, 3126
$GPGGA,000410.000,0000.000000,N,00000.000000,E,0,00,127.000,0.000,M,0,M,,*72
$GPRMC,000410.000,V,0000.000000,N,00000.000000,E,0.000,0.000,,,E,N*36
$GPGLL,0000.000000,N,00000.000000,E,000410.000,V,N*44
$GPGSA,A,1,,,,,,,,,,,,,127.000,127.000,127.000*34
$GLGSA,A,1,,,,,,,,,,,,,127.000,127.000,127.000*28
$GPVTG,0.000,T,,M,0.000,N,0.000,K,N*02
$RD_RSSI, 4955, 2947
$GPGGA,000411.000,0000.000000,N,00000.000000,E,0,00,127.000,0.000,M,0,M,,*73
$GPRMC,000411.000,V,0000.000000,N,00000.000000,E,0.000,0.000,,,E,N*37
$GPGLL,0000.000000,N,00000.000000,E,000411.000,V,N*45
$GPGSA,A,1,,,,,,,,,,,,,127.000,127.000,127.000*34
$GLGSA,A,1,,,,,,,,,,,,,127.000,127.000,127.000*28
$GPVTG,0.000,T,,M,0.000,N,0.000,K,N*02
$RD_RSSI, 5083, 3170
$GPGGA,000412.000,0000.000000,N,00000.000000,E,0,00,127.000,0.000,M,0,M,,*70
$GPRMC,000412.000,V,0000.000000,N,00000.000000,E,0.000,0.000,,,E,N*34
$GPGLL,0000.000000,N,00000.000000,E,000412.000,V,N*46
$GPGSA,A,1,,,,,,,,,,,,,127.000,127.000,127.000*34
$GLGSA,A,1,,,,,,,,,,,,,127.000,127.000,127.000*28
$GPVTG,0.000,T,,M,0.000,N,0.000,K,N*02
