$RD_RSSI, 9185, 9873
$GPGGA,000447.000,0000.000000,N,00000.000000,E,0,00,127.000,0.000,M,0,M,,*70
$GPRMC,000447.000,V,0000.000000,N,00000.000000,E,0.000,0.000,,,E,N*34
$GPGLL,0000.000000,N,00000.000000,E,000447.000,V,N*46
$GPGSA,A,1,,,,,,,,,,,,,127.000,127.000,127.000*34
$GLGSA,A,1,,,,,,,,,,,,,127.000,127.000,127.000*28
$GPVTG,0.000,T,,M,0.000,N,0.000,K,N*02
$RD_RSSI, 5079, 3856
$GPGGA,000448.000,0000.000000,N,00000.000000,E,0,00,127.000,0.000,M,0,M,,*7F
$GPRMC,000448.000,V,0000.000000,N,00000.000000,E,0.000,0.000,,,E,N*3B
$GPGLL,0000.000000,N,00000.000000,E,000448.000,V,N*49
$GPGSA,A,1,,,,,,,,,,,,,127.000,127.000,127.000*34
$GLGSA,A,1,,,,,,,,,,,,,127.000,127.000,127.000*28
$GPVTG,0.000,T,,M,0.000,N,0.000,K,N*02
$RD_RSSI, 5309, 3409
$GPGGA,000449.000,0000.000000,N,00000.000000,E,0,00,127.000,0.000,M,0,M,,*7E
$GPRMC,000449.000,V,0000.000000,N,00000.000000,E,0.000,0.000,,,E,N*3A
$GPGLL,0000.000000,N,00000.000000,E,000449.000,V,N*48
$GPGSA,A,1,,,,,,,,,,,,,127.000,127.000,127.000*34
$GLGSA,A,1,,,,,,,,,,,,,127.000,127.000,127.000*28
$GPVTG,0.000,T,,M,0.000,N,0.000,K,N*02
$RD_RSSI, 5283, 3097
$GPGGA,000450.000,0000.000000,N,00000.000000,E,0,00,127.000,0.000,M,0,M,,*76
$GPRMC,000450.000,V,0000.000000,N,00000.000000,E,0.000,0.000,,,E,N*32
$GPGLL,0000.000000,N,00000.000000,E,000450.000,V,N*40
$GPGSA,A,1,,,,,,,,,,,,,127.000,127.000,127.000*34
$GLGSA,A,1,,,,,,,,,,,,,127.000,127.000,127.000*28
$GPVTG,0.000,T,,M,0.000,N,0.000,K,N*02
$RD_RSSI, 5216, 3147
$GPGGA,000451.000,0000.000000,N,00000.000000,E,0,00,127.000,0.000,M,0,M,,*77
$GPRMC,000451.000,V,0000.000000,N,00000.000000,E,0.000,0.000,,,E,N*33
$GPGLL,0000.000000,N,00000.000000,E,000451.000,V,N*41
$GPGSA,A,1,,,,,,,,,,,,,127.000,127.000,127.000*34
$GLGSA,A,1,,,,,,,,,,,,,127.000,127.000,127.000*28
$GPVTG,0.000,T,,M,0.000,N,0.000,K,N*02
$RD_RSSI, 5278, 3362
$GPGGA,000452.000,0000.000000,N,00000.000000,E,0,00,127.000,0.000,M,0,M,,*74
$GPRMC,000452.000,V,0000.000000,N,00000.000000,E,0.000,0.000,,,E,N*30
$GPGLL,0000.000000,N,00000.000000,E,000452.000,V,N*42
$GPGSA,A,1,,,,,,,,,,,,,127.000,127.000,127.000*34
$GLGSA,A,1,,,,,,,,,,,,,127.000,127.000,127.000*28
$GPVTG,0.000,T,,M,0.000,N,0.000,K,N*02
$RD_RSSI, 5563, 3940
$GPGGA,000453.000,0000.000000,N,00000.000000,E,0,00,127.000,0.000,M,0,M,,*75
$GPRMC,000453.000,V,0000.000000,N,00000.000000,E,0.000,0.000,,,E,N*31
$GPGLL,0000.000000,N,00000.000000,E,000453.000,V,N*43
$GPGSA,A,1,,,,,,,,,,,,,127.000,127.000,127.000*34
$GLGSA,A,1,,,,,,,,,,,,,127.000,127.000,127.000*28
$GPVTG,0.000,T,,M,0.000,N,0.000,K,N*02
$RD_RSSI, 5402, 3607
$GPGGA,000454.000,0000.000000,N,00000.000000,E,0,00,127.000,0.000,M,0,M,,*72
$GPRMC,000454.000,V,0000.000000,N,00000.000000,E,0.000,0.000,,,E,N*36
$GPGLL,0000.000000,N,00000.000000,E,000454.000,V,N*44
$GPGSA,A,1,,,,,,,,,,,,,127.000,127.000,127.000*34
$GLGSA,A,1,,,,,,,,,,,,,127.000,127.000,127.000*28
$GPVTG,0.000,T,,M,0.000,N,0.000,K,N*02
$RD_RSSI, 5071, 3158
$GPGGA,000455.000,0000.000000,N,00000.000000,E,0,00,127.000,0.000,M,0,M,,*73
$GPRMC,000455.000,V,0000.000000,N,00000.000000,E,0.000,0.000,,,E,N*37
$GPGLL,0000.000000,N,00000.000000,E,000455.000,V,N*45
$GPGSA,A,1,,,,,,,,,,,,,127.000,127.000,127.000*34
$GLGSA,A,1,,,,,,,,,,,,,127.000,127.000,127.000*28
$GPVTG,0.000,T,,M,0.000,N,0.000,K,N*02
$RD_RSSI, 5191, 3325
$GPGGA,000456.000,0000.000000,N,00000.000000,E,0,00,127.000,0.000,M,0,M,,*70
$GPRMC,000456.000,V,0000.000000,N,00000.000000,E,0.000,0.000,,,E,N*34
$GPGLL,0000.000000,N,00000.000000,E,000456.000,V,N*46
$GPGSA,A,1,,,,,,,,,,,,,127.000,127.000,127.000*34
$GLGSA,A,1,,,,,,,,,,,,,127.000,127.000,127.000*28
$GPVTG,0.000,T,,M,0.000,N,0.000,K,N*02
$RD_RSSI, 6088, 3729
$GPGGA,000457.000,0000.000000,N,00000.000000,E,0,00,127.000,0.000,M,0,M,,*71
$GPRMC,000457.000,V,0000.000000,N,00000.000000,E,0.000,0.000,,,E,N*35
$GPGLL,0000.000000,N,00000.000000,E,000457.000,V,N*47
$GPGSA,A,1,,,,,,,,,,,,,127.000,127.000,127.000*34
$GLGSA,A,1,,,,,,,,,,,,,127.000,127.000,127.000*28
$GPVTG,0.000,T,,M,0.000,N,0.000,K,N*02
$RD_RSSI, 5344, 3703
$GPGGA,000458.000,0000.000000,N,00000.000000,E,0,00,127.000,0.000,M,0,M,,*7E
$GPRMC,000458.000,V,0000.000000,N,00000.000000,E,0.000,0.000,,,E,N*3A
$GPGLL,0000.000000,N,00000.000000,E,000458.000,V,N*48
$GPGSA,A,1,,,,,,,,,,,,,127.000,127.000,127.000*34
$GLGSA,A,1,,,,,,,,,,,,,127.000,127.000,127.000*28
$GPVTG,0.000,T,,M,0.000,N,0.000,K,N*02
