$RD_RSSI, 5545, 4025
$GPGGA,235945.000,0000.000000,N,00000.000000,E,0,00,127.000,0.000,M,0,M,,*7B
$GPRMC,235945.000,V,0000.000000,N,00000.000000,E,0.000,0.000,,,E,N*3F
$GPGLL,0000.000000,N,00000.000000,E,235945.000,V,N*4D
$GPGSA,A,1,,,,,,,,,,,,,127.000,127.000,127.000*34
$GLGSA,A,1,,,,,,,,,,,,,127.000,127.000,127.000*28
$GPVTG,0.000,T,,M,0.000,N,0.000,K,N*02
$RD_RSSI, 5008, 5943
$GPGGA,235946.000,0000.000000,N,00000.000000,E,0,00,127.000,0.000,M,0,M,,*78
$GPRMC,235946.000,V,0000.000000,N,00000.000000,E,0.000,0.000,,,E,N*3C
$GPGLL,0000.000000,N,00000.000000,E,235946.000,V,N*4E
$GPGSA,A,1,,,,,,,,,,,,,127.000,127.000,127.000*34
$GLGSA,A,1,,,,,,,,,,,,,127.000,127.000,127.000*28
$GPVTG,0.000,T,,M,0.000,N,0.000,K,N*02
$RD_RSSI, 5774, 4377
$GPGGA,235947.000,0000.000000,N,00000.000000,E,0,00,127.000,0.000,M,0,M,,*79
$GPRMC,235947.000,V,0000.000000,N,00000.000000,E,0.000,0.000,,,E,N*3D
$GPGLL,0000.000000,N,00000.000000,E,235947.000,V,N*4F
$GPGSA,A,1,,,,,,,,,,,,,127.000,127.000,127.000*34
$GLGSA,A,1,,,,,,,,,,,,,127.000,127.000,127.000*28
$GPVTG,0.000,T,,M,0.000,N,0.000,K,N*02
$RD_RSSI, 5681, 4570
$GPGGA,235948.000,0000.000000,N,00000.000000,E,0,00,127.000,0.000,M,0,M,,*76
$GPRMC,235948.000,V,0000.000000,N,00000.000000,E,0.000,0.000,,,E,N*32
$GPGLL,0000.000000,N,00000.000000,E,235948.000,V,N*40
$GPGSA,A,1,,,,,,,,,,,,,127.000,127.000,127.000*34
$GLGSA,A,1,,,,,,,,,,,,,127.000,127.000,127.000*28
$GPVTG,0.000,T,,M,0.000,N,0.000,K,N*02
$RD_RSSI, 5539, 3417
$GPGGA,235949.000,0000.000000,N,00000.000000,E,0,00,127.000,0.000,M,0,M,,*77
$GPRMC,235949.000,V,0000.000000,N,00000.000000,E,0.000,0.000,,,E,N*33
$GPGLL,0000.000000,N,00000.000000,E,235949.000,V,N*41
$GPGSA,A,1,,,,,,,,,,,,,127.000,127.000,127.000*34
$GLGSA,A,1,,,,,,,,,,,,,127.000,127.000,127.000*28
$GPVTG,0.000,T,,M,0.000,N,0.000,K,N*02
$RD_RSSI, 5690, 3460
$GPGGA,235950.000,0000.000000,N,00000.000000,E,0,00,127.000,0.000,M,0,M,,*7F
$GPRMC,235950.000,V,0000.000000,N,00000.000000,E,0.000,0.000,,,E,N*3B
$GPGLL,0000.000000,N,00000.000000,E,235950.000,V,N*49
$GPGSA,A,1,,,,,,,,,,,,,127.000,127.000,127.000*34
$GLGSA,A,1,,,,,,,,,,,,,127.000,127.000,127.000*28
$GPVTG,0.000,T,,M,0.000,N,0.000,K,N*02
$RD_RSSI, 5166, 3151
$GPGGA,235951.000,0000.000000,N,00000.000000,E,0,00,127.000,0.000,M,0,M,,*7E
$GPRMC,235951.000,V,0000.000000,N,00000.000000,E,0.000,0.000,,,E,N*3A
$GPGLL,0000.000000,N,00000.000000,E,235951.000,V,N*48
$GPGSA,A,1,,,,,,,,,,,,,127.000,127.000,127.000*34
$GLGSA,A,1,,,,,,,,,,,,,127.000,127.000,127.000*28
$GPVTG,0.000,T,,M,0.000,N,0.000,K,N*02
$RD_RSSI, 5095, 4309
$GPGGA,235952.000,0000.000000,N,00000.000000,E,0,00,127.000,0.000,M,0,M,,*7D
$GPRMC,235952.000,V,0000.000000,N,00000.000000,E,0.000,0.000,,,E,N*39
$GPGLL,0000.000000,N,00000.000000,E,235952.000,V,N*4B
$GPGSA,A,1,,,,,,,,,,,,,127.000,127.000,127.000*34
$GLGSA,A,1,,,,,,,,,,,,,127.000,127.000,127.000*28
$GPVTG,0.000,T,,M,0.000,N,0.000,K,N*02
$RD_RSSI, 5069, 4328
$GPGGA,235953.000,0000.000000,N,00000.000000,E,0,00,127.000,0.000,M,0,M,,*7C
$GPRMC,235953.000,V,0000.000000,N,00000.000000,E,0.000,0.000,,,E,N*38
$GPGLL,0000.000000,N,00000.000000,E,235953.000,V,N*4A
$GPGSA,A,1,,,,,,,,,,,,,127.000,127.000,127.000*34
$GLGSA,A,1,,,,,,,,,,,,,127.000,127.000,127.000*28
$GPVTG,0.000,T,,M,0.000,N,0.000,K,N*02
$RD_RSSI, 6238, 6083
$GPGGA,235954.000,0000.000000,N,00000.000000,E,0,00,127.000,0.000,M,0,M,,*7B
$GPRMC,235954.000,V,0000.000000,N,00000.000000,E,0.000,0.000,,,E,N*3F
$GPGLL,0000.000000,N,00000.000000,E,235954.000,V,N*4D
$GPGSA,A,1,,,,,,,,,,,,,127.000,127.000,127.000*34
$GLGSA,A,1,,,,,,,,,,,,,127.000,127.000,127.000*28
$GPVTG,0.000,T,,M,0.000,N,0.000,K,N*02
$RD_RSSI, 5272, 3114
$GPGGA,235955.000,0000.000000,N,00000.000000,E,0,00,127.000,0.000,M,0,M,,*7A
$GPRMC,235955.000,V,0000.000000,N,00000.000000,E,0.000,0.000,,,E,N*3E
$GPGLL,0000.000000,N,00000.000000,E,235955.000,V,N*4C
$GPGSA,A,1,,,,,,,,,,,,,127.000,127.000,127.000*34
$GLGSA,A,1,,,,,,,,,,,,,127.000,127.000,127.000*28
$GPVTG,0.000,T,,M,0.000,N,0.000,K,N*02
$RD_RSSI, 5670, 4273
$GPGGA,235956.000,0000.000000,N,00000.000000,E,0,00,127.000,0.000,M,0,M,,*79
$GPRMC,235956.000,V,0000.000000,N,00000.000000,E,0.000,0.000,,,E,N*3D
$GPGLL,0000.000000,N,00000.000000,E,235956.000,V,N*4F
$GPGSA,A,1,,,,,,,,,,,,,127.000,127.000,127.000*34
$GLGSA,A,1,,,,,,,,,,,,,127.000,127.000,127.000*28
$GPVTG,0.000,T,,M,0.000,N,0.000,K,N*02
$RD_RSSI, 5891, 4221
$GPGGA,235957.000,0000.000000,N,00000.000000,E,0,00,127.000,0.000,M,0,M,,*78
$GPRMC,235957.000,V,0000.000000,N,00000.000000,E,0.000,0.000,,,E,N*3C
$GPGLL,0000.000000,N,00000.000000,E,235957.000,V,N*4E
$GPGSA,A,1,,,,,,,,,,,,,127.000,127.000,127.000*34
$GLGSA,A,1,,,,,,,,,,,,,127.000,127.000,127.000*28
$GPVTG,0.000,T,,M,0.000,N,0.000,K,N*02
$RD_RSSI, 6633, 6463
$GPGGA,235958.000,0000.000000,N,00000.000000,E,0,00,127.000,0.000,M,0,M,,*77
$GPRMC,235958.000,V,0000.000000,N,00000.000000,E,0.000,0.000,,,E,N*33
$GPGLL,0000.000000,N,00000.000000,E,235958.000,V,N*41
$GPGSA,A,1,,,,,,,,,,,,,127.000,127.000,127.000*34
$GLGSA,A,1,,,,,,,,,,,,,127.000,127.000,127.000*28
$GPVTG,0.000,T,,M,0.000,N,0.000,K,N*02
