$RD_RSSI, 4446, 2890
$GPGGA,000306.000,0000.000000,N,00000.000000,E,0,00,127.000,0.000,M,0,M,,*72
$GPRMC,000306.000,V,0000.000000,N,00000.000000,E,0.000,0.000,,,E,N*36
$GPGLL,0000.000000,N,00000.000000,E,000306.000,V,N*44
$GPGSA,A,1,,,,,,,,,,,,,127.000,127.000,127.000*34
$GLGSA,A,1,,,,,,,,,,,,,127.000,127.000,127.000*28
$GPVTG,0.000,T,,M,0.000,N,0.000,K,N*02
$RD_RSSI, 4233, 3099
$GPGGA,000307.000,0000.000000,N,00000.000000,E,0,00,127.000,0.000,M,0,M,,*73
$GPRMC,000307.000,V,0000.000000,N,00000.000000,E,0.000,0.000,,,E,N*37
$GPGLL,0000.000000,N,00000.000000,E,000307.000,V,N*45
$GPGSA,A,1,,,,,,,,,,,,,127.000,127.000,127.000*34
$GLGSA,A,1,,,,,,,,,,,,,127.000,127.000,127.000*28
$GPVTG,0.000,T,,M,0.000,N,0.000,K,N*02
$RD_RSSI, 4240, 2995
$GPGGA,000308.000,0000.000000,N,00000.000000,E,0,00,127.000,0.000,M,0,M,,*7C
$GPRMC,000308.000,V,0000.000000,N,00000.000000,E,0.000,0.000,,,E,N*38
$GPGLL,0000.000000,N,00000.000000,E,000308.000,V,N*4A
$GPGSA,A,1,,,,,,,,,,,,,127.000,127.000,127.000*34
$GLGSA,A,1,,,,,,,,,,,,,127.000,127.000,127.000*28
$GPVTG,0.000,T,,M,0.000,N,0.000,K,N*02
$RD_RSSI, 9949, 11010
$GPGGA,000309.000,0000.000000,N,00000.000000,E,0,00,127.000,0.000,M,0,M,,*7D
$GPRMC,000309.000,V,0000.000000,N,00000.000000,E,0.000,0.000,,,E,N*39
$GPGLL,0000.000000,N,00000.000000,E,000309.000,V,N*4B
$GPGSA,A,1,,,,,,,,,,,,,127.000,127.000,127.000*34
$GLGSA,A,1,,,,,,,,,,,,,127.000,127.000,127.000*28
$GPVTG,0.000,T,,M,0.000,N,0.000,K,N*02
$RD_RSSI, 3954, 2840
$GPGGA,000310.000,0000.000000,N,00000.000000,E,0,00,127.000,0.000,M,0,M,,*75
$GPRMC,000310.000,V,0000.000000,N,00000.000000,E,0.000,0.000,,,E,N*31
$GPGLL,0000.000000,N,00000.000000,E,000310.000,V,N*43
$GPGSA,A,1,,,,,,,,,,,,,127.000,127.000,127.000*34
$GLGSA,A,1,,,,,,,,,,,,,127.000,127.000,127.000*28
$GPVTG,0.000,T,,M,0.000,N,0.000,K,N*02
$RD_RSSI, 3989, 2858
$GPGGA,000311.000,0000.000000,N,00000.000000,E,0,00,127.000,0.000,M,0,M,,*74
$GPRMC,000311.000,V,0000.000000,N,00000.000000,E,0.000,0.000,,,E,N*30
$GPGLL,0000.000000,N,00000.000000,E,000311.000,V,N*42
$GPGSA,A,1,,,,,,,,,,,,,127.000,127.000,127.000*34
$GLGSA,A,1,,,,,,,,,,,,,127.000,127.000,127.000*28
$GPVTG,0.000,T,,M,0.000,N,0.000,K,N*02
$RD_RSSI, 3963, 2844
$GPGGA,000312.000,0000.000000,N,00000.000000,E,0,00,127.000,0.000,M,0,M,,*77
$GPRMC,000312.000,V,0000.000000,N,00000.000000,E,0.000,0.000,,,E,N*33
$GPGLL,0000.000000,N,00000.000000,E,000312.000,V,N*41
$GPGSA,A,1,,,,,,,,,,,,,127.000,127.000,127.000*34
$GLGSA,A,1,,,,,,,,,,,,,127.000,127.000,127.000*28
$GPVTG,0.000,T,,M,0.000,N,0.000,K,N*02
$RD_RSSI, 3908, 2819
$GPGGA,000313.000,0000.000000,N,00000.000000,E,0,00,127.000,0.000,M,0,M,,*76
$GPRMC,000313.000,V,0000.000000,N,00000.000000,E,0.000,0.000,,,E,N*32
$GPGLL,0000.000000,N,00000.000000,E,000313.000,V,N*40
$GPGSA,A,1,,,,,,,,,,,,,127.000,127.000,127.000*34
$GLGSA,A,1,,,,,,,,,,,,,127.000,127.000,127.000*28
$GPVTG,0.000,T,,M,0.000,N,0.000,K,N*02
$RD_RSSI, 4752, 4338
$GPGGA,000314.000,0000.000000,N,00000.000000,E,0,00,127.000,0.000,M,0,M,,*71
$GPRMC,000314.000,V,0000.000000,N,00000.000000,E,0.000,0.000,,,E,N*35
$GPGLL,0000.000000,N,00000.000000,E,000314.000,V,N*47
$GPGSA,A,1,,,,,,,,,,,,,127.000,127.000,127.000*34
$GLGSA,A,1,,,,,,,,,,,,,127.000,127.000,127.000*28
$GPVTG,0.000,T,,M,0.000,N,0.000,K,N*02
$RD_RSSI, 7561, 10011
$GPGGA,000315.000,0000.000000,N,00000.000000,E,0,00,127.000,0.000,M,0,M,,*70
$GPRMC,000315.000,V,0000.000000,N,00000.000000,E,0.000,0.000,,,E,N*34
$GPGLL,0000.000000,N,00000.000000,E,000315.000,V,N*46
$GPGSA,A,1,,,,,,,,,,,,,127.000,127.000,127.000*34
$GLGSA,A,1,,,,,,,,,,,,,127.000,127.000,127.000*28
$GPVTG,0.000,T,,M,0.000,N,0.000,K,N*02
$RD_RSSI, 3988, 2871
$GPGGA,000316.000,0000.000000,N,00000.000000,E,0,00,127.000,0.000,M,0,M,,*73
$GPRMC,000316.000,V,0000.000000,N,00000.000000,E,0.000,0.000,,,E,N*37
$GPGLL,0000.000000,N,00000.000000,E,000316.000,V,N*45
$GPGSA,A,1,,,,,,,,,,,,,127.000,127.000,127.000*34
$GLGSA,A,1,,,,,,,,,,,,,127.000,127.000,127.000*28
$GPVTG,0.000,T,,M,0.000,N,0.000,K,N*02
$RD_RSSI, 3997, 2881
$GPGGA,000317.000,0000.000000,N,00000.000000,E,0,00,127.000,0.000,M,0,M,,*72
$GPRMC,000317.000,V,0000.000000,N,00000.000000,E,0.000,0.000,,,E,N*36
$GPGLL,0000.000000,N,00000.000000,E,000317.000,V,N*44
$GPGSA,A,1,,,,,,,,,,,,,127.000,127.000,127.000*34
$GLGSA,A,1,,,,,,,,,,,,,127.000,127.000,127.000*28
$GPVTG,0.000,T,,M,0.000,N,0.000,K,N*02
$RD_RSSI, 4647, 3326
$GPGGA,000318.000,0000.000000,N,00000.000000,E,0,00,127.000,0.000,M,0,M,,*7D
$GPRMC,000318.000,V,0000.000000,N,00000.000000,E,0.000,0.000,,,E,N*39
$GPGLL,0000.000000,N,00000.000000,E,000318.000,V,N*4B
$GPGSA,A,1,,,,,,,,,,,,,127.000,127.000,127.000*34
$GLGSA,A,1,,,,,,,,,,,,,127.000,127.000,127.000*28
$GPVTG,0.000,T,,M,0.000,N,0.000,K,N*02
